[{"id":"1","name":"COPE Toronto","lat":"test","lng":"-79.405524","address":"3040 Excelsior Blvd","address2":"","city":"Minneapolis","state":"MN","postal":"55416","phone":"612-922-6662","web":"http:\/\/www.chipotle.com","hours1":"Mon-Sun 11am-10pm","hours2":"","hours3":""},{"id":"2","name":"COPE St. Louis","lat":"38.485230","lng":"-90.382010","address":"3040 Excelsior Blvd","address2":"","city":"Minneapolis","state":"MN","postal":"55416","phone":"612-922-6662","web":"http:\/\/www.chipotle.com","hours1":"Mon-Sun 11am-10pm","hours2":"","hours3":""},{"id":"3","name":"COPE Charlotte","lat":"35.198637","lng":"-80.801792","address":"3040 Excelsior Blvd","address2":"","city":"Minneapolis","state":"MN","postal":"55416","phone":"612-922-6662","web":"http:\/\/www.chipotle.com","hours1":"Mon-Sun 11am-10pm","hours2":"","hours3":""},{"id":"4","name":"COPE Durham","lat":"36.075505","lng":"-79.101691","address":"3040 Excelsior Blvd","address2":"","city":"Minneapolis","state":"MN","postal":"55416","phone":"612-922-6662","web":"http:\/\/www.chipotle.com","hours1":"Mon-Sun 11am-10pm","hours2":"","hours3":""},{"id":"5","name":"COPE New York","lat":"40.780685","lng":"-73.956511","address":"3040 Excelsior Blvd","address2":"","city":"Minneapolis","state":"MN","postal":"55416","phone":"612-922-6662","web":"http:\/\/www.chipotle.com","hours1":"Mon-Sun 11am-10pm","hours2":"","hours3":""},{"id":"6","name":"COPE Atlanta","lat":"34.088729","lng":"-84.253448","address":"3040 Excelsior Blvd","address2":"","city":"Minneapolis","state":"MN","postal":"55416","phone":"612-922-6662","web":"http:\/\/www.chipotle.com","hours1":"Mon-Sun 11am-10pm","hours2":"","hours3":""},]