
[{"name":"New York","lat":"40.780685","lng":"-73.956511"},{"name":"Charlotte","lat":"35.198637","lng":"-80.801792"},{"name":"Houston","lat":"29.762445","lng":"-95.369620"},{"name":"Philadelphia","lat":"39.954188","lng":"-75.164885"},{"name":"St. Louis","lat":"38.485230","lng":"-90.382010"}]